City,Country,Lat,Lon,Date,Max Temp,Humidity,Cloudiness,Wind Speed
souillac,FR,45.6,-0.6,1571123131,53.6,93.0,100.0,5.82
mataura,NZ,-46.19,168.86,1571123046,52.0,85.0,0.0,8.01
tuktoyaktuk,CA,69.44,-133.03,1571123132,23.94,82.0,0.0,13.72
kahului,US,20.89,-156.47,1571123132,78.8,74.0,20.0,14.99
butaritari,KI,3.07,172.79,1571123132,83.08,72.0,93.0,6.37
jamestown,AU,-33.21,138.6,1571123132,66.11,61.0,99.0,2.47
rikitea,PF,-23.12,-134.97,1571123133,73.58,83.0,15.0,8.76
norman wells,CA,65.28,-126.83,1571123133,24.8,73.0,20.0,6.93
la asuncion,AR,-26.05,-65.39,1571123133,41.2,97.0,100.0,3.41
lenger,KZ,42.18,69.89,1571123133,51.28,29.0,57.0,7.32
arraial do cabo,BR,-22.97,-42.02,1571123133,71.96,93.0,33.0,3.27
kapaa,US,22.08,-159.32,1571123134,80.6,78.0,90.0,18.34
fairbanks,US,64.84,-147.72,1571123134,23.0,67.0,1.0,8.05
albany,US,42.65,-73.75,1571123046,46.4,75.0,75.0,2.09
new norfolk,AU,-42.78,147.06,1571123134,50.0,87.0,75.0,6.93
pundaguitan,PH,6.37,126.17,1571123134,81.48,75.0,100.0,1.47
puerto ayora,EC,-0.74,-90.35,1571123135,66.99,89.0,50.0,5.99
coquimbo,CL,-29.95,-71.34,1571123135,53.6,76.0,75.0,5.82
busselton,AU,-33.64,115.35,1571123046,66.99,33.0,86.0,12.81
punta arenas,CL,-53.16,-70.91,1571123135,32.0,91.0,31.0,3.36
thompson,CA,55.74,-97.86,1571123135,32.0,88.0,90.0,5.82
leningradskiy,RU,69.38,178.42,1571123135,33.26,80.0,100.0,12.61
houston,US,29.76,-95.37,1571123053,78.01,94.0,90.0,6.81
lianran,CN,24.92,102.47,1571123136,66.0,93.0,90.0,8.95
hilo,US,19.71,-155.08,1571123136,75.2,73.0,1.0,5.82
sao joao da barra,BR,-21.64,-41.05,1571123136,72.05,85.0,0.0,8.74
ribeira grande,PT,38.52,-28.7,1571123136,68.0,77.0,75.0,23.04
cape town,ZA,-33.93,18.42,1571123137,68.0,67.0,23.0,4.7
nikolskoye,RU,59.7,30.79,1571123137,39.2,69.0,6.0,6.71
musenita,RO,47.97,26,1571123137,62.01,93.0,0.0,3.3
kloulklubed,PW,7.04,134.26,1571123137,80.6,88.0,75.0,4.7
anadyr,RU,64.73,177.51,1571123137,37.4,95.0,75.0,26.84
pisco,PE,-13.71,-76.2,1571123138,59.0,87.0,0.0,4.7
srandakan,ID,-7.94,110.25,1571123138,85.78,55.0,90.0,15.3
carnarvon,ZA,-30.97,22.13,1571123138,60.53,36.0,0.0,16.58
belmonte,PT,40.36,-7.35,1571123138,44.01,71.0,16.0,4.7
hermanus,ZA,-34.42,19.24,1571123138,64.99,66.0,0.0,1.01
waipawa,NZ,-39.94,176.59,1571123139,50.0,93.0,100.0,7.0
avarua,CK,-21.21,-159.78,1571123139,71.6,78.0,84.0,5.82
hithadhoo,MV,-0.6,73.08,1571123139,78.96,86.0,100.0,17.81
georgetown,GY,6.8,-58.16,1571123139,73.4,100.0,20.0,2.24
elat,CM,2.91,11.16,1571123139,67.1,99.0,98.0,1.02
amot,NO,59.57,7.99,1571123140,43.0,100.0,75.0,3.14
yellowknife,CA,62.45,-114.38,1571123045,30.2,80.0,90.0,10.29
yerkoy,TR,39.64,34.47,1571123140,67.26,19.0,18.0,3.45
ilulissat,GL,69.22,-51.1,1571123141,21.2,57.0,63.0,11.41
torbay,CA,47.66,-52.73,1571123141,43.0,86.0,90.0,3.36
west wendover,US,40.74,-114.07,1571123141,41.0,52.0,1.0,3.36
chokurdakh,RU,70.62,147.9,1571123141,17.91,94.0,100.0,10.4
thinadhoo,MV,0.53,72.93,1571123141,79.74,82.0,100.0,10.88
kodiak,US,39.95,-94.76,1571123141,57.99,87.0,1.0,8.05
mogadishu,SO,2.04,45.34,1571123142,82.4,69.0,75.0,5.82
jumla,NP,29.28,82.18,1571123142,63.59,34.0,10.0,5.42
qaanaaq,GL,77.48,-69.36,1571123182,20.16,88.0,100.0,8.84
tateyama,JP,36.66,137.31,1571123182,62.01,63.0,75.0,8.05
ushuaia,AR,-54.81,-68.31,1571123183,42.8,93.0,75.0,18.34
tilbury,GB,51.46,0.36,1571123183,55.99,87.0,90.0,5.82
springfield,US,42.1,-72.59,1571123183,48.99,65.0,1.0,2.14
east london,ZA,-33.02,27.91,1571123183,69.8,52.0,19.0,18.34
castro,CL,-42.48,-73.76,1571123183,48.2,70.0,100.0,3.36
mount gambier,AU,-37.83,140.78,1571123184,55.4,82.0,90.0,10.29
keti bandar,PK,24.14,67.45,1571123184,88.93,43.0,0.0,6.25
praia da vitoria,PT,38.73,-27.07,1571123184,62.6,77.0,20.0,19.58
taloqan,AF,36.74,69.54,1571123185,58.46,35.0,0.0,5.99
hobart,AU,-42.88,147.33,1571123185,50.0,87.0,75.0,6.93
half moon bay,US,37.46,-122.43,1571123185,57.0,87.0,90.0,3.13
sedalia,US,38.7,-93.23,1571123185,63.0,67.0,90.0,5.82
sibolga,ID,1.74,98.78,1571123185,83.01,74.0,100.0,5.68
noumea,NC,-22.28,166.46,1571123185,71.6,56.0,20.0,10.29
buritizeiro,BR,-17.37,-44.96,1571123186,68.31,51.0,23.0,2.61
frata,RO,46.7,24.06,1571123186,48.2,87.0,40.0,4.7
te anau,NZ,-45.41,167.72,1571123186,50.94,86.0,68.0,3.13
olga,US,34.11,-118.17,1571123186,66.2,77.0,1.0,2.06
srednekolymsk,RU,67.46,153.71,1571123187,28.44,96.0,100.0,15.89
haines junction,CA,60.75,-137.51,1571123187,21.02,72.0,100.0,7.41
belaya gora,RU,68.54,146.19,1571123187,19.78,94.0,100.0,10.85
sao filipe,CV,14.9,-24.5,1571123187,77.61,86.0,100.0,18.85
taungdwingyi,MM,20,95.55,1571123188,86.47,65.0,88.0,3.11
marsa matruh,EG,31.35,27.25,1571123188,75.2,73.0,20.0,4.7
san jeronimo,PE,-13.65,-73.37,1571123188,49.44,90.0,94.0,3.51
caravelas,BR,-17.73,-39.27,1571123188,68.65,96.0,5.0,5.58
vila franca do campo,PT,37.72,-25.43,1571123188,71.01,64.0,75.0,16.11
koslan,RU,63.46,48.9,1571123189,33.58,87.0,100.0,6.36
bambanglipuro,ID,-7.95,110.28,1571123189,85.78,55.0,90.0,15.3
egvekinot,RU,66.32,-179.17,1571123189,27.84,92.0,100.0,5.62
ust-koksa,RU,50.27,85.62,1571123189,46.18,39.0,77.0,17.6
kendari,ID,-3.99,122.52,1571123190,88.11,50.0,72.0,8.29
mount darwin,ZW,-16.77,31.58,1571123190,70.43,46.0,0.0,6.14
bluff,AU,-23.58,149.07,1571123044,97.3,14.0,10.0,7.48
ossora,RU,59.24,163.07,1571123190,35.78,49.0,62.0,8.77
adrar,DZ,27.87,-0.29,1571123190,71.6,35.0,8.0,4.7
gidole,ET,5.65,37.37,1571123191,73.63,64.0,19.0,3.3
bambous virieux,MU,-20.34,57.76,1571123191,79.0,61.0,40.0,10.29
tuatapere,NZ,-46.13,167.69,1571123191,52.0,85.0,72.0,8.01
vaini,IN,15.34,74.49,1571123191,82.4,69.0,40.0,6.93
upernavik,GL,72.79,-56.15,1571123191,26.31,64.0,100.0,13.3
erenhot,CN,43.65,111.97,1571123192,46.33,15.0,0.0,2.98
barrow,AR,-38.31,-60.23,1571123192,37.42,91.0,100.0,4.78
karasjok,NO,69.47,25.52,1571123192,33.8,91.0,75.0,13.87
pitimbu,BR,-7.47,-34.81,1571123192,71.6,100.0,75.0,6.93
cayenne,GF,4.94,-52.33,1571123193,73.4,94.0,20.0,3.35
kalengwa,ZM,-13.47,25,1571123193,75.25,43.0,53.0,9.65
yulara,AU,-25.24,130.99,1571123193,100.4,5.0,26.0,24.16
atuona,PF,-9.8,-139.03,1571123193,79.84,78.0,5.0,16.6
mayo,CA,63.59,-135.9,1571123193,21.2,73.0,90.0,6.93
codrington,AU,-28.95,153.24,1571123234,84.2,57.0,42.0,13.87
mahebourg,MU,-20.41,57.7,1571123234,79.0,61.0,40.0,10.29
sao miguel do araguaia,BR,-13.28,-50.16,1571123234,77.68,46.0,34.0,2.93
labuhan,ID,-2.54,115.51,1571123234,93.67,44.0,56.0,0.87
kavieng,PG,-2.57,150.8,1571123234,84.2,67.0,74.0,2.26
chukhloma,RU,58.76,42.68,1571123235,35.58,84.0,90.0,7.64
pevek,RU,69.7,170.27,1571123235,32.95,72.0,100.0,4.02
trairi,BR,-3.28,-39.27,1571123235,74.28,87.0,44.0,7.79
port lincoln,AU,-34.72,135.86,1571123235,56.07,84.0,99.0,11.03
lamu,CN,35.77,102.37,1571123235,36.82,91.0,100.0,2.06
ponta do sol,BR,-20.63,-46,1571123236,66.9,55.0,1.0,2.8
romny,UA,50.74,33.49,1571123236,55.8,62.0,0.0,5.1
clyde river,CA,70.47,-68.59,1571123236,30.2,68.0,90.0,4.7
cabo san lucas,MX,22.89,-109.91,1571123236,80.01,92.0,16.0,3.08
huarmey,PE,-10.07,-78.15,1571123236,59.11,85.0,28.0,1.19
newport,GB,51.59,-3,1571123237,52.0,93.0,90.0,4.7
longyearbyen,NO,78.22,15.63,1571123045,24.8,79.0,75.0,2.24
bisira,PA,8.52,-81.71,1571123237,66.96,97.0,100.0,1.65
abha,SA,18.22,42.5,1571123237,71.6,31.0,35.0,14.99
belle fourche,US,44.67,-103.85,1571123237,39.99,86.0,90.0,9.17
port alfred,ZA,-33.59,26.89,1571123238,70.0,67.0,26.0,7.0
ekibastuz,KZ,51.72,75.32,1571123238,55.13,46.0,50.0,19.69
tomelloso,ES,39.16,-3.02,1571123238,44.6,93.0,0.0,3.36
provideniya,RU,64.42,-173.23,1571123238,41.0,75.0,90.0,22.37
chuy,UY,-33.69,-53.46,1571123238,53.65,75.0,80.0,11.8
lieksa,FI,63.32,30.02,1571123239,30.31,90.0,61.0,5.36
amberley,NZ,-43.15,172.73,1571123239,52.0,87.0,90.0,10.29
aitape,PG,-3.15,142.36,1571123239,83.66,73.0,52.0,9.82
bredasdorp,ZA,-34.53,20.04,1571123239,62.6,59.0,11.0,6.93
nanortalik,GL,60.14,-45.24,1571123240,36.1,72.0,0.0,6.08
victoria,BN,5.28,115.24,1571123240,89.6,66.0,75.0,3.36
tskaltubo,GE,42.33,42.6,1571123240,73.4,40.0,0.0,17.22
old shinyanga,TZ,-3.56,33.41,1571123240,76.55,51.0,74.0,10.4
saldanha,PT,41.42,-6.55,1571123240,43.59,95.0,9.0,4.05
corum,TR,38.8,29.89,1571123241,68.0,30.0,33.0,1.12
antofagasta,CL,-23.65,-70.4,1571123241,56.75,87.0,2.0,7.94
moron,HT,18.56,-74.26,1571123241,79.14,79.0,88.0,6.31
margate,AU,-43.03,147.26,1571123241,50.0,87.0,75.0,6.93
talnakh,RU,69.49,88.39,1571123242,31.42,88.0,100.0,2.95
damphu,BT,27.07,90.11,1571123242,76.93,33.0,0.0,5.44
tsaratanana,MG,-16.8,47.65,1571123242,81.55,45.0,20.0,3.72
askarovo,RU,53.34,58.51,1571123242,39.99,85.0,99.0,12.46
kaitangata,NZ,-46.28,169.85,1571123243,51.01,81.0,50.0,10.0
tiksi,RU,71.64,128.87,1571123243,16.63,84.0,94.0,9.38
marawi,PH,8,124.29,1571123243,84.99,77.0,51.0,7.0
zyryanka,RU,65.73,150.89,1571123243,21.31,93.0,100.0,21.68
ucluelet,CA,48.94,-125.55,1571123243,52.0,85.0,100.0,3.0
kunagota,HU,46.43,21.05,1571123244,63.0,63.0,30.0,10.29
balkhash,KZ,46.84,74.98,1571123244,55.17,53.0,87.0,21.74
svecha,RU,58.28,47.52,1571123244,37.49,86.0,93.0,5.91
bandarbeyla,SO,9.49,50.81,1571123244,81.01,72.0,47.0,6.38
bodmin,GB,50.47,-4.72,1571123245,54.0,100.0,20.0,5.82
atar,MR,20.52,-13.05,1571123285,79.54,55.0,89.0,11.1
beloha,MG,-25.17,45.06,1571123285,76.37,58.0,70.0,21.47
bogalusa,US,30.79,-89.85,1571123285,70.0,88.0,90.0,3.87
cross lanes,GB,50.05,-5.22,1571123286,54.0,100.0,20.0,6.93
nome,US,30.04,-94.42,1571123286,79.0,94.0,90.0,5.82
vao,EE,59.1,26.19,1571123286,36.86,92.0,20.0,3.17
dingle,PH,11,122.67,1571123286,83.3,75.0,100.0,10.6
timra,SE,62.49,17.33,1571123287,36.0,100.0,64.0,5.82
derzhavinsk,KZ,51.1,66.31,1571123287,48.63,65.0,12.0,17.26
airai,TL,-8.93,125.41,1571123287,82.22,44.0,1.0,8.4
lompoc,US,34.64,-120.46,1571123287,60.01,93.0,90.0,12.27
san patricio,PY,-26.98,-56.83,1571123287,61.54,93.0,100.0,9.14
gashua,NG,12.87,11.04,1571123288,82.36,60.0,54.0,5.98
richards bay,ZA,-28.77,32.06,1571123288,70.12,85.0,53.0,42.17
hobyo,SO,5.35,48.53,1571123288,82.62,65.0,33.0,3.32
pichayevo,RU,51.79,41.22,1571123288,56.86,70.0,9.0,13.93
hervey bay,AU,-25.3,152.85,1571123289,75.99,64.0,90.0,19.46
hede,SE,60.45,15.49,1571123289,41.0,100.0,75.0,5.82
fomboni,KM,-12.28,43.74,1571123289,80.46,77.0,17.0,14.71
ubinskoye,RU,55.31,79.68,1571123289,47.84,81.0,100.0,9.97
northam,AU,-31.65,116.67,1571123289,68.0,32.0,0.0,13.87
khatanga,RU,71.98,102.47,1571123289,19.92,91.0,61.0,6.28
swan river,CA,52.11,-101.27,1571123290,37.18,97.0,100.0,5.98
izhma,RU,65.01,53.91,1571123290,33.66,96.0,100.0,7.7
prunisor,RO,44.61,22.92,1571123290,59.97,61.0,0.0,3.46
marquette,US,46.54,-87.4,1571123290,39.0,79.0,1.0,4.7
ust-nera,RU,64.57,143.24,1571123291,5.92,93.0,100.0,3.27
saint-philippe,CA,45.36,-73.48,1571123291,42.8,80.0,1.0,6.93
quanzhou,CN,24.9,118.59,1571123291,77.0,57.0,90.0,15.66
bayan,CN,36.1,102.26,1571123291,36.82,91.0,100.0,2.06
ifakara,TZ,-8.13,36.68,1571123292,80.51,58.0,0.0,3.03
grindavik,IS,63.84,-22.43,1571123044,50.0,76.0,90.0,35.57
poronaysk,RU,49.22,143.1,1571123292,41.77,47.0,8.0,14.5
takaka,NZ,-40.86,172.81,1571123292,60.01,67.0,99.0,5.99
andros town,BS,24.73,-77.79,1571123292,78.8,83.0,75.0,5.82
la palma,CO,5.36,-74.39,1571123293,65.79,97.0,90.0,1.99
yerbogachen,RU,61.28,108.01,1571123293,35.98,97.0,100.0,7.79
viseu,PT,40.66,-7.91,1571123293,53.01,100.0,20.0,6.93
ranong,TH,9.96,98.62,1571123293,87.8,70.0,40.0,3.36
gull lake,CA,50.1,-108.48,1571123293,33.8,97.0,90.0,12.75
sinop,TR,42.03,35.15,1571123293,66.2,72.0,75.0,6.93
vodnyy,RU,63.51,53.41,1571123294,34.03,95.0,100.0,7.69
saskylakh,RU,71.97,114.09,1571123294,22.51,96.0,94.0,5.26
severo-kurilsk,RU,50.68,156.12,1571123294,33.66,78.0,92.0,21.28
taltal,CL,-25.41,-70.49,1571123294,51.82,84.0,0.0,1.38
tarakan,ID,3.3,117.63,1571123295,85.44,68.0,71.0,11.1
witu,KE,-2.39,40.44,1571123295,80.1,79.0,36.0,12.97
tasiilaq,GL,65.61,-37.64,1571123295,30.2,74.0,0.0,4.7
shihezi,CN,44.3,86.03,1571123295,69.01,23.0,41.0,15.52
narasannapeta,IN,18.42,84.04,1571123295,86.49,67.0,0.0,11.0
surgut,RU,61.25,73.4,1571123336,44.04,84.0,96.0,8.8
sitka,US,37.17,-99.65,1571123336,55.99,72.0,0.0,10.0
port elizabeth,US,39.31,-74.98,1571123336,57.99,93.0,1.0,4.51
srivardhan,IN,18.03,73.02,1571123336,88.32,64.0,2.0,6.15
trapani,IT,38.02,12.54,1571123337,70.0,83.0,20.0,2.24
jinchang,CN,38.52,102.19,1571123337,44.78,59.0,100.0,6.98
quatre cocos,MU,-20.21,57.76,1571123337,79.0,61.0,40.0,10.29
lebu,ET,8.96,38.73,1571123337,69.8,28.0,20.0,23.04
paamiut,GL,61.99,-49.67,1571123337,32.77,35.0,0.0,6.58
loreto,PY,-23.27,-57.32,1571123338,71.98,99.0,67.0,3.4
businga,CD,3.34,20.89,1571123338,76.3,80.0,98.0,1.86
saint george,GR,39.45,22.34,1571123338,66.2,82.0,0.0,0.97
dwarka,IN,28.58,77.04,1571123339,89.6,43.0,0.0,3.08
ust-tsilma,RU,65.44,52.15,1571123339,33.91,88.0,96.0,6.87
bayshore gardens,US,27.43,-82.59,1571123339,78.01,83.0,1.0,6.93
suntar,RU,62.16,117.65,1571123339,32.61,85.0,68.0,6.27
rumphi,MW,-11.02,33.86,1571123339,75.07,51.0,0.0,7.46
kargil,PK,34.56,76.13,1571123340,44.31,25.0,0.0,2.04
dubbo,AU,-32.25,148.6,1571123340,89.6,9.0,0.0,13.87
sorland,NO,67.67,12.69,1571123340,39.2,80.0,40.0,8.05
eyl,SO,7.98,49.82,1571123340,80.58,78.0,57.0,10.04
dikson,RU,73.51,80.55,1571123340,24.73,78.0,98.0,22.07
sur,OM,22.57,59.53,1571123341,86.4,41.0,0.0,9.25
roebourne,AU,-20.77,117.15,1571123341,97.66,10.0,0.0,16.28
itarema,BR,-2.92,-39.92,1571123341,76.78,82.0,10.0,9.22
coffs harbour,AU,-30.3,153.13,1571123341,80.6,83.0,0.0,18.34
kaka,TM,37.35,59.62,1571123342,70.12,18.0,0.0,13.65
port-gentil,GA,-0.72,8.78,1571123342,75.2,94.0,75.0,2.24
carndonagh,IE,55.25,-7.27,1571123342,53.6,81.0,40.0,3.36
jacobina,BR,-11.19,-40.51,1571123342,64.36,91.0,51.0,5.96
puerto madero,AR,-34.61,-58.36,1571123342,50.0,66.0,75.0,6.93
mahon,IE,51.89,-8.4,1571123343,46.0,93.0,20.0,5.82
patacamaya,BO,-17.23,-67.92,1571123343,42.48,84.0,83.0,4.8
uarini,BR,-2.98,-65.16,1571123343,72.3,97.0,18.0,0.57
concepcion del uruguay,AR,-32.48,-58.24,1571123343,46.99,86.0,100.0,4.0
keuruu,FI,62.26,24.71,1571123343,33.01,92.0,90.0,3.36
hualmay,PE,-11.1,-77.61,1571123344,56.05,90.0,60.0,2.69
alofi,NU,-19.06,-169.92,1571123344,75.2,78.0,72.0,5.82
port pirie,AU,-33.18,138.01,1571123344,66.2,45.0,97.0,8.05
dutlwe,BW,-23.98,23.93,1571123344,75.88,33.0,41.0,14.58
marondera,ZW,-18.19,31.55,1571123344,70.52,26.0,0.0,9.52
biarritz,FR,43.48,-1.56,1571123345,57.0,87.0,95.0,6.93
tomatlan,MX,19.93,-105.25,1571123345,74.03,99.0,100.0,1.22
port blair,IN,11.67,92.75,1571123345,84.54,74.0,100.0,16.78
hasaki,JP,35.73,140.83,1571123345,66.0,72.0,75.0,13.87
hamada,JP,34.9,132.08,1571123345,73.0,55.0,20.0,9.17
raudeberg,NO,61.99,5.14,1571123346,48.2,87.0,75.0,11.41
teya,MX,21.05,-89.07,1571123346,81.0,88.0,5.0,8.05
baglung,NP,28.27,83.59,1571123347,60.64,54.0,0.0,8.09
wencheng,CN,27.79,120.09,1571123347,62.85,69.0,79.0,8.61
alyangula,AU,-13.85,136.42,1571123347,89.6,52.0,11.0,11.41
tulum,MX,20.21,-87.46,1571123387,80.6,88.0,40.0,9.17
pontivy,FR,48.06,-2.97,1571123388,57.0,93.0,17.0,4.7
san quintin,PH,17.54,120.52,1571123388,88.0,61.0,71.0,6.57
marshall,US,39.12,-93.2,1571123388,60.8,67.0,90.0,5.82
kununurra,AU,-15.77,128.74,1571123388,102.2,12.0,1.0,10.29
dawson creek,CA,55.76,-120.23,1571123389,35.6,80.0,75.0,6.93
port hardy,CA,50.7,-127.42,1571123389,48.2,93.0,90.0,20.8
namatanai,PG,-3.66,152.44,1571123389,84.22,66.0,96.0,3.52
tres picos,MX,16.23,-93.58,1571123389,68.47,91.0,98.0,6.08
bethel,US,60.79,-161.76,1571123390,35.6,74.0,1.0,6.93
chabahar,IR,25.29,60.65,1571123390,91.44,29.0,0.0,1.28
raahe,FI,64.68,24.47,1571123390,30.2,92.0,20.0,4.7
providencia,CO,1.24,-77.6,1571123390,44.2,91.0,33.0,5.14
okhotsk,RU,59.36,143.24,1571123390,23.32,57.0,51.0,16.38
bessemer,US,33.4,-86.95,1571123391,66.2,68.0,40.0,2.86
kita,JP,35.76,139.74,1571123391,70.0,68.0,75.0,12.75
mnogovershinnyy,RU,53.94,139.92,1571123391,34.03,55.0,37.0,20.54
geraldton,CA,49.72,-86.95,1571123391,37.4,86.0,75.0,4.7
klaksvik,FO,62.23,-6.59,1571123391,48.2,87.0,0.0,17.22
alice springs,AU,-23.7,133.88,1571123392,102.2,8.0,93.0,5.82
tefe,BR,-3.35,-64.71,1571123392,72.86,97.0,39.0,1.7
livingston,US,32.58,-88.19,1571123392,66.0,93.0,1.0,2.43
apricena,IT,41.78,15.44,1571123392,63.0,100.0,75.0,3.36
logan lake,CA,50.49,-120.81,1571123392,46.4,75.0,90.0,9.17
aurdal,NO,60.92,9.42,1571123393,35.01,98.0,100.0,1.03
jaffna,LK,9.67,80.01,1571123393,84.83,67.0,78.0,2.67
fortuna,US,40.6,-124.16,1571123393,46.99,100.0,90.0,3.36
kasongo,CD,-4.43,26.67,1571123393,75.94,85.0,21.0,2.27
tura,RU,64.27,100.22,1571123393,34.77,99.0,100.0,5.85
comodoro rivadavia,AR,-45.87,-67.48,1571123394,46.4,61.0,0.0,10.29
melito di porto salvo,IT,37.92,15.77,1571123394,73.99,82.0,0.0,1.12
maningrida,AU,-12.05,134.23,1571123394,88.12,45.0,77.0,11.44
lagoa,PT,37.14,-8.45,1571123394,55.99,81.0,0.0,2.24
ewa beach,US,21.32,-158.01,1571123395,81.0,65.0,20.0,5.82
sioux lookout,CA,50.1,-91.92,1571123395,37.4,100.0,90.0,4.27
turka,RU,52.95,108.22,1571123395,47.98,46.0,71.0,3.71
lianzhou,CN,24.79,112.38,1571123396,74.34,59.0,60.0,9.6
hinundayan,PH,10.35,125.25,1571123396,83.71,72.0,4.0,11.88
castleblayney,GB,54.12,-6.74,1571123396,53.01,93.0,40.0,6.93
amalapuram,IN,16.58,82,1571123396,87.8,62.0,40.0,9.17
palu,ID,-0.9,119.87,1571123397,78.39,85.0,100.0,3.07
mahajanga,MG,-15.72,46.32,1571123397,86.0,66.0,20.0,8.05
sale,AU,-38.11,147.06,1571123397,62.01,62.0,40.0,7.0
katobu,ID,-4.94,122.53,1571123397,90.68,43.0,89.0,2.16
gamba,CN,28.28,88.52,1571123397,39.76,30.0,0.0,6.44
kota belud,MY,6.35,116.43,1571123398,89.6,70.0,75.0,4.7
cidreira,BR,-30.17,-50.22,1571123398,59.67,85.0,100.0,20.37
cap malheureux,MU,-19.98,57.61,1571123398,78.8,61.0,40.0,10.29
aklavik,CA,68.22,-135.01,1571123398,19.4,92.0,90.0,6.93
falmouth,GB,50.16,-5.07,1571123398,54.0,100.0,20.0,6.93
iqaluit,CA,63.75,-68.52,1571123439,26.6,73.0,75.0,2.24
faanui,PF,-16.48,-151.75,1571123439,77.95,84.0,6.0,18.17
bastia,IT,44.6,8.98,1571123439,68.0,94.0,90.0,31.09
hami,CN,42.84,93.51,1571123439,62.94,20.0,0.0,6.89
verkhniy uslon,RU,55.77,48.98,1571123440,46.4,93.0,90.0,8.95
el seibo,DO,18.76,-69.04,1571123440,76.39,84.0,8.0,3.13
birao,CF,10.3,22.78,1571123440,76.71,77.0,98.0,4.33
ust-kuyga,RU,70,135.55,1571123440,11.86,93.0,90.0,6.71
cherskiy,RU,68.75,161.3,1571123440,13.6,85.0,96.0,4.08
udachnyy,RU,66.42,112.4,1571123441,21.58,89.0,19.0,5.68
muhos,FI,64.81,26,1571123441,30.2,92.0,20.0,4.7
yajalon,MX,17.17,-92.33,1571123441,59.72,95.0,87.0,3.13
bay roberts,CA,47.58,-53.28,1571123441,43.0,86.0,90.0,3.36
tyn nad vltavou,CZ,49.22,14.42,1571123442,57.99,87.0,29.0,1.01
ostersund,SE,63.18,14.64,1571123442,30.2,100.0,90.0,4.7
nador,MA,35.17,-2.93,1571123442,66.2,72.0,20.0,6.93
kaset sombun,TH,16.28,101.95,1571123442,84.79,65.0,58.0,11.34
batemans bay,AU,-35.71,150.18,1571123443,75.99,85.0,46.0,1.99
pangody,RU,65.85,74.49,1571123443,40.15,97.0,100.0,5.03
gorom-gorom,BF,14.45,-0.24,1571123443,86.58,21.0,12.0,9.95
ishim,RU,56.11,69.47,1571123443,44.11,80.0,98.0,14.06
lorengau,PG,-2.02,147.27,1571123443,84.33,71.0,39.0,10.29
birsk,RU,55.42,55.54,1571123444,42.85,91.0,100.0,7.27
saint-pierre,FR,48.95,4.24,1571123444,57.2,93.0,90.0,9.17
jiangyou,CN,31.78,104.73,1571123444,53.91,93.0,100.0,4.11
zambezi,ZM,-13.55,23.12,1571123444,77.88,52.0,73.0,3.91
ambon,FR,47.55,-2.56,1571123445,57.0,93.0,35.0,4.7
ryazhsk,RU,53.71,40.06,1571123445,63.0,50.0,20.0,5.01
san jose,HN,14.25,-87.96,1571123445,61.72,89.0,100.0,3.7
jimeta,NG,9.28,12.44,1571123445,75.81,91.0,99.0,6.03
road town,VG,18.42,-64.62,1571123445,81.0,78.0,1.0,5.82
lethem,GY,3.38,-59.8,1571123446,77.05,79.0,82.0,10.49
iwaki,JP,37.05,140.89,1571123446,64.99,62.0,40.0,16.11
longhua,CN,29.21,106.21,1571123446,65.26,89.0,99.0,5.74
poso,ID,-1.4,120.75,1571123446,75.33,82.0,27.0,2.68
east wenatchee bench,US,47.43,-120.28,1571123447,44.6,65.0,1.0,3.08
vila velha,BR,-3.71,-38.6,1571123447,79.0,78.0,20.0,13.87
obo,CF,5.39,26.49,1571123447,73.65,90.0,54.0,2.88
victoria point,AU,-27.58,153.3,1571123447,78.01,69.0,20.0,14.99
aginskoye,RU,51.11,114.54,1571123447,51.49,31.0,10.0,12.6
xianshuigu,CN,38.98,117.38,1571123448,62.6,27.0,28.0,6.71
khasan,RU,42.43,130.64,1571123448,53.22,33.0,0.0,4.61
puerto madryn,AR,-42.77,-65.04,1571123448,44.83,77.0,96.0,16.34
beni suef,EG,29.07,31.1,1571123448,73.96,69.0,0.0,6.76
omboue,GA,-1.57,9.26,1571123449,72.88,97.0,100.0,2.72
havre-saint-pierre,CA,50.23,-63.6,1571123449,48.2,100.0,90.0,12.75
komsomolskiy,RU,67.55,63.78,1571123449,34.45,90.0,100.0,14.23
bata,GQ,1.87,9.77,1571123449,73.4,100.0,40.0,2.61
tondano,ID,1.3,124.91,1571123449,82.4,83.0,40.0,4.7
kamenka,MD,48.03,28.7,1571123450,46.0,94.0,0.0,2.79
jejuri,IN,18.28,74.16,1571123450,82.56,46.0,0.0,12.87
mar del plata,AR,-46.43,-67.52,1571123450,43.81,78.0,0.0,2.67
trabzon,TR,41.01,39.72,1571123490,68.0,77.0,36.0,5.82
yar-sale,RU,66.83,70.83,1571123490,39.24,93.0,100.0,13.96
dhidhdhoo,MV,6.88,73.1,1571123491,83.89,67.0,99.0,5.31
saint-joseph,FR,43.56,6.97,1571123491,70.0,94.0,93.0,13.87
arawa,ID,-3.93,119.75,1571123491,93.63,35.0,0.0,10.37
thaba-tseka,LS,-29.52,28.61,1571123491,62.22,22.0,28.0,3.05
guadalajara,ES,40.63,-3.16,1571123491,48.99,70.0,20.0,4.7
dabat,ET,12.98,37.77,1571123492,62.29,59.0,63.0,5.48
krasnovishersk,RU,60.4,57.08,1571123492,37.65,81.0,97.0,7.65
gobabis,NA,-22.45,18.97,1571123492,75.2,12.0,69.0,5.82
ulaanbaatar,MN,47.92,106.92,1571123492,50.0,13.0,0.0,8.95
broome,GB,52.47,1.45,1571123492,53.01,93.0,75.0,9.17
traverse city,US,44.76,-85.62,1571123493,44.6,71.0,1.0,10.53
armilla,ES,37.14,-3.63,1571123493,61.0,93.0,20.0,3.36
namibe,AO,-15.19,12.15,1571123493,71.26,82.0,27.0,10.1
banjar,ID,-7.37,108.54,1571123493,82.04,60.0,96.0,8.22
mount isa,AU,-20.73,139.49,1571123493,102.2,11.0,52.0,9.17
santa isabel do rio negro,BR,-0.41,-65.02,1571123494,72.75,98.0,53.0,0.95
fort nelson,CA,58.81,-122.69,1571123494,33.8,80.0,90.0,5.82
zhezkazgan,KZ,47.8,67.71,1571123494,54.18,49.0,31.0,18.1
berlevag,NO,70.86,29.09,1571123494,32.0,86.0,98.0,8.05
shingu,JP,33.72,135.99,1571123495,73.4,46.0,20.0,17.22
hearst,CA,49.69,-83.67,1571123495,35.55,91.0,98.0,9.83
esperance,AU,-33.86,121.89,1571123495,60.8,63.0,75.0,19.46
qasigiannguit,GL,68.82,-51.19,1571123495,21.2,57.0,63.0,12.75
lavrentiya,RU,65.58,-170.99,1571123496,36.03,77.0,100.0,22.19
bonthe,SL,7.53,-12.5,1571123496,76.33,92.0,100.0,3.06
saint anthony,US,43.97,-111.68,1571123496,46.4,64.0,1.0,8.05
killybegs,IE,54.63,-8.45,1571123496,48.0,96.0,100.0,1.99
oriximina,BR,-1.77,-55.87,1571123496,77.36,81.0,46.0,4.43
camocim,BR,-2.9,-40.84,1571123497,74.57,85.0,3.0,8.76
koppal,IN,15.35,76.15,1571123497,81.36,72.0,64.0,12.05
parrita,CR,9.52,-84.33,1571123497,68.0,94.0,75.0,3.36
touros,BR,-5.2,-35.46,1571123497,71.6,100.0,75.0,3.36
karla,EE,59.37,24.93,1571123498,42.01,100.0,40.0,2.24
bend,US,44.06,-121.32,1571123498,46.99,64.0,1.0,3.36
san rafael,AR,-34.61,-68.33,1571123498,36.9,95.0,100.0,9.35
kargasok,RU,59.06,80.87,1571123498,49.96,80.0,100.0,9.29
north bend,US,43.41,-124.22,1571123499,46.99,100.0,1.0,3.36
verkh-usugli,RU,52.7,115.17,1571123499,47.64,48.0,99.0,4.66
biltine,TD,14.53,20.93,1571123499,82.35,52.0,76.0,4.36
tyrma,RU,50.04,132.17,1571123499,36.61,42.0,88.0,5.87
agnibilekrou,CI,7.13,-3.2,1571123500,70.66,99.0,95.0,4.31
vanimo,PG,-2.67,141.3,1571123500,84.15,69.0,95.0,8.67
rancho palos verdes,US,33.75,-118.37,1571123500,63.0,73.0,1.0,5.75
tommot,RU,58.97,126.27,1571123500,27.84,91.0,100.0,9.16
victor harbor,AU,-35.55,138.62,1571123501,61.0,72.0,66.0,9.17
murfreesboro,US,35.85,-86.39,1571123501,55.99,93.0,1.0,3.5
zhigansk,RU,66.77,123.37,1571123501,20.25,79.0,53.0,4.21
arman,RU,59.7,150.17,1571123541,33.1,46.0,77.0,10.24
seabra,BR,-12.42,-41.77,1571123541,61.2,93.0,45.0,13.19
najran,SA,17.54,44.22,1571123541,82.4,28.0,40.0,11.41
vardo,US,39.62,-77.74,1571123542,51.01,100.0,1.0,2.95
miyako,JP,33.63,130.94,1571123542,70.0,60.0,75.0,16.11
ust-karsk,RU,52.71,118.82,1571123542,41.43,42.0,35.0,4.51
kaeo,NZ,-35.1,173.78,1571123542,61.0,100.0,100.0,12.34
matara,BI,-3.48,29.48,1571123543,65.97,73.0,1.0,5.5
corner brook,CA,48.95,-57.95,1571123543,43.0,95.0,5.0,2.24
pokhara,NP,28.21,83.99,1571123543,81.79,55.0,0.0,2.73
mackenzie,CA,55.34,-123.09,1571123543,32.0,89.0,20.0,2.24
lasa,CY,34.92,32.53,1571123543,82.4,69.0,40.0,8.05
galle,GN,10.08,-12.83,1571123544,69.42,95.0,78.0,0.88
bosaso,SO,11.28,49.18,1571123544,84.2,66.0,20.0,8.05
nabire,ID,-3.36,135.5,1571123544,85.35,61.0,65.0,5.59
bilibino,RU,68.06,166.44,1571123544,14.63,91.0,100.0,1.05
plettenberg bay,ZA,-34.05,23.37,1571123545,64.13,68.0,14.0,2.58
mangrol,IN,25.33,76.51,1571123545,91.4,38.0,0.0,2.24
sai buri,TH,6.7,101.62,1571123545,87.8,70.0,20.0,8.05
morondava,MG,-20.3,44.28,1571123545,87.69,37.0,0.0,3.79
maun,BW,-19.99,23.42,1571123546,77.0,36.0,9.0,14.99
cheyenne,US,41.14,-104.82,1571123546,46.99,74.0,1.0,5.82
boulder,US,40.02,-105.27,1571123541,54.0,25.0,1.0,4.7
manadhoo,MV,5.77,73.38,1571123546,83.48,71.0,70.0,6.8
siderno,IT,38.28,16.3,1571123546,73.99,77.0,40.0,6.93
jeremie,HT,18.65,-74.12,1571123546,70.52,90.0,77.0,1.84
isla vista,US,34.41,-119.86,1571123547,60.01,93.0,1.0,3.9
lata,IN,30.78,78.62,1571123547,41.16,59.0,0.0,8.37
concepcion,CO,9.56,-73.66,1571123547,73.71,93.0,100.0,1.69
svetlogorsk,RU,53.14,59.15,1571123547,44.87,73.0,100.0,12.64
encrucijada,CU,22.62,-79.86,1571123547,73.4,88.0,20.0,1.12
farah,AF,32.37,62.11,1571123548,64.15,29.0,0.0,4.92
katsuura,JP,33.93,134.5,1571123548,71.01,56.0,75.0,17.22
cravo norte,CO,6.3,-70.2,1571123548,77.65,86.0,83.0,4.52
dondo,MZ,-19.62,34.74,1571123548,75.2,78.0,75.0,4.7
demyanovo,RU,60.35,47.08,1571123548,34.88,96.0,96.0,5.56
petropavlovsk-kamchatskiy,RU,53.05,158.65,1571123549,37.4,59.0,40.0,2.24
vila do maio,CV,15.13,-23.22,1571123549,78.8,83.0,75.0,9.17
tautira,PF,-17.73,-149.15,1571123549,75.2,88.0,75.0,6.93
qaqortoq,GL,60.72,-46.03,1571123549,28.4,50.0,0.0,4.7
alamosa,US,37.47,-105.87,1571123549,37.4,34.0,1.0,4.1
luleburgaz,TR,41.4,27.36,1571123550,62.6,88.0,10.0,8.05
wanning,AT,48.64,13.53,1571123550,53.01,100.0,90.0,5.82
moranbah,AU,-22,148.04,1571123550,96.82,17.0,0.0,10.76
bithur,IN,26.68,80.34,1571123550,87.8,55.0,20.0,5.82
mayumba,GA,-3.44,10.65,1571123550,75.99,89.0,91.0,3.17
limbang,BN,4.75,115.01,1571123551,89.6,59.0,75.0,8.05
inongo,CD,-1.93,18.29,1571123551,76.66,81.0,100.0,4.32
bonavista,CA,48.65,-53.11,1571123551,42.01,84.0,78.0,3.0
bitung,ID,1.44,125.19,1571123551,82.4,83.0,40.0,4.7
kozhva,RU,65.11,57.05,1571123551,35.1,89.0,100.0,8.03
kagoro,NG,9.6,8.38,1571123552,68.59,97.0,100.0,2.26
progreso,UY,-34.68,-56.22,1571123552,55.0,62.0,75.0,11.41
grand gaube,MU,-20.01,57.66,1571123552,78.8,61.0,40.0,10.29
bingol,TR,38.88,40.49,1571123592,59.0,24.0,7.0,3.49
boyolangu,ID,-8.09,111.9,1571123592,89.22,45.0,79.0,17.11
ningbo,CN,29.88,121.54,1571123593,70.0,52.0,75.0,11.18
purranque,CL,-40.91,-73.16,1571123593,48.2,87.0,90.0,1.12
high wycombe,GB,51.63,-0.75,1571123593,52.0,100.0,90.0,1.12
inuvik,CA,68.36,-133.71,1571123593,19.4,92.0,90.0,6.93
sangar,RU,63.92,127.47,1571123593,25.23,80.0,100.0,11.99
hofn,IS,64.25,-15.21,1571123594,48.78,87.0,100.0,23.93
wick,GB,51.45,-2.43,1571123594,52.0,93.0,90.0,4.7
mecca,SA,21.43,39.83,1571123594,94.28,20.0,10.0,8.5
chipata,ZM,-13.64,32.65,1571123594,80.37,46.0,0.0,6.94
ciudad bolivar,VE,8.12,-63.55,1571123595,76.84,84.0,99.0,5.75
necochea,AR,-38.55,-58.74,1571123595,45.0,69.0,100.0,1.99
la ronge,CA,55.1,-105.3,1571123595,33.8,86.0,90.0,4.7
portland,US,43.66,-70.25,1571123595,53.6,87.0,90.0,3.36
sungaipenuh,ID,-2.08,101.38,1571123595,79.09,52.0,74.0,5.7
kashan,IR,33.99,51.44,1571123596,73.4,31.0,0.0,6.93
dawei,MM,14.07,98.19,1571123596,87.82,65.0,71.0,9.02
naze,NG,5.43,7.07,1571123596,73.94,95.0,94.0,3.22
laguna,BZ,16.17,-88.94,1571123596,77.0,94.0,90.0,4.1
praia,BR,-20.25,-43.81,1571123596,68.0,49.0,4.0,8.05
biak,ID,-0.91,122.88,1571123597,82.47,77.0,57.0,9.63
owando,CG,-0.49,15.91,1571123597,71.91,97.0,99.0,5.01
almaznyy,RU,48.03,40.04,1571123597,60.1,49.0,77.0,4.45
lalibela,ET,12.04,39.05,1571123597,65.52,49.0,47.0,1.74
constitucion,MX,23.99,-104.67,1571123597,66.94,66.0,94.0,1.32
evensk,RU,61.92,159.24,1571123598,12.94,74.0,20.0,8.76
muisne,EC,0.61,-80.02,1571123598,73.78,84.0,100.0,5.4
kainantu,PG,-6.29,145.87,1571123598,70.03,59.0,15.0,5.66
poum,MK,41.28,20.71,1571123598,59.0,82.0,0.0,2.24
makakilo city,US,21.35,-158.09,1571123598,81.0,65.0,20.0,5.82
kerouane,GN,12.23,-12.34,1571123598,75.2,94.0,36.0,2.71
pingdingshan,CN,33.74,113.3,1571123599,65.21,34.0,44.0,9.63
kharp,RU,66.82,65.8,1571123599,31.19,94.0,100.0,8.44
takoradi,GH,4.89,-1.75,1571123599,77.04,90.0,61.0,8.25
mont-dore,NC,-22.23,166.53,1571123599,68.0,64.0,41.0,5.82
nuuk,GL,64.17,-51.74,1571123599,24.8,73.0,2.0,12.75
ahipara,NZ,-35.17,173.16,1571123600,61.0,100.0,56.0,27.53
pacific grove,US,36.62,-121.92,1571123600,54.0,76.0,90.0,8.24
rawlins,US,41.79,-107.24,1571123600,39.2,31.0,1.0,6.18
guia de isora,ES,28.21,-16.78,1571123600,69.01,87.0,40.0,3.36
uray,RU,60.13,64.8,1571123600,39.6,87.0,92.0,8.23
portmore,JM,17.97,-76.87,1571123601,78.8,78.0,20.0,5.82
carutapera,BR,-1.2,-46.02,1571123601,80.6,78.0,25.0,15.11
martapura,ID,-3.41,114.85,1571123601,96.8,44.0,40.0,11.41
aketi,CD,2.74,23.78,1571123601,76.5,75.0,89.0,1.44
jackson,US,43.48,-110.76,1571123601,39.2,44.0,1.0,4.7
pochutla,MX,15.74,-96.47,1571123602,78.01,84.0,62.0,9.03
auki,NG,12.18,6.51,1571123602,72.18,82.0,84.0,8.53
celestun,MX,20.87,-90.4,1571123602,81.99,79.0,86.0,18.49
goba,ET,7.01,39.97,1571123602,55.96,53.0,99.0,4.91
west bay,CA,49.34,-123.21,1571123603,51.01,93.0,90.0,2.24
neiafu,TO,-18.65,-173.98,1571123643,77.0,83.0,75.0,2.24
acajutla,SV,13.59,-89.83,1571123643,80.42,75.0,100.0,23.67
amarante do maranhao,BR,-5.57,-46.74,1571123643,75.33,72.0,55.0,4.12
bandipur,IN,11.67,76.63,1571123644,74.91,81.0,74.0,3.07
calbe,DE,51.9,11.78,1571123644,62.01,93.0,97.0,6.93
kosh-agach,RU,49.99,88.66,1571123644,44.49,32.0,0.0,4.74
kutum,SD,14.2,24.66,1571123644,73.63,60.0,72.0,3.73
narsaq,GL,60.91,-46.05,1571123644,28.4,50.0,0.0,4.7
cap-aux-meules,CA,47.38,-61.86,1571123645,50.52,93.0,94.0,16.33
grenfell,AU,-33.9,148.16,1571123645,83.21,19.0,0.0,11.44
monaco-ville,FR,43.73,7.42,1571123645,69.8,88.0,75.0,14.99
wabana,CA,47.63,-52.95,1571123645,44.01,86.0,90.0,3.36
muzaffargarh,PK,30.08,71.19,1571123645,87.8,38.0,0.0,7.01
ulety,RU,51.36,112.48,1571123646,51.13,31.0,53.0,8.77
high level,CA,58.52,-117.13,1571123646,28.4,86.0,1.0,10.29
zhmerynka,UA,49.04,28.11,1571123646,59.0,72.0,0.0,3.78
pangnirtung,CA,66.15,-65.72,1571123646,27.37,64.0,96.0,2.24
aykhal,RU,65.95,111.51,1571123646,20.5,93.0,38.0,7.48
sobolevo,RU,54.43,31.9,1571123647,48.63,90.0,5.0,7.35
sao felix do xingu,BR,-6.64,-51.99,1571123647,70.47,95.0,37.0,0.37
rio gallegos,AR,-51.62,-69.22,1571123647,32.0,79.0,14.0,3.36
huangzhou,CN,30.44,114.88,1571123647,76.08,37.0,18.0,6.04
bilma,NE,18.69,12.92,1571123648,82.42,22.0,2.0,7.51
arlit,NE,18.74,7.39,1571123648,83.75,20.0,0.0,7.87
husavik,CA,50.56,-96.99,1571123648,37.99,92.0,100.0,2.49
hovd,NO,63.83,10.7,1571123648,42.01,92.0,25.0,2.24
christchurch,NZ,-43.53,172.64,1571123648,53.01,100.0,19.0,10.29
oschatz,DE,51.3,13.11,1571123649,60.01,82.0,7.0,12.75
ingham,AU,-18.65,146.16,1571123649,90.39,29.0,0.0,6.14
palaikastron,GR,35.2,26.25,1571123649,75.0,61.0,0.0,15.01
eregli,TR,37.51,34.05,1571123649,70.25,26.0,23.0,2.71
kurchum,KZ,48.57,83.65,1571123650,58.28,51.0,99.0,11.7
kwakoa,TZ,-3.77,37.72,1571123650,74.1,63.0,0.0,8.18
sulzbach-rosenberg,DE,49.5,11.75,1571123650,53.01,100.0,90.0,4.7
vryburg,ZA,-26.96,24.73,1571123650,80.74,24.0,92.0,11.34
milos,GR,36.75,24.43,1571123650,71.6,68.0,0.0,9.89
bom jesus,BR,-9.08,-44.36,1571123651,72.99,44.0,46.0,2.25
santa ines,EC,-0.82,-78.63,1571123651,44.6,93.0,75.0,2.24
madimba,CM,4.42,9.93,1571123651,75.2,100.0,75.0,3.36
nantucket,US,41.28,-70.1,1571123651,57.99,82.0,1.0,6.93
kudahuvadhoo,MV,2.67,72.89,1571123652,83.71,68.0,98.0,4.89
ukiah,US,39.15,-123.21,1571123652,57.99,57.0,1.0,1.91
fukue,JP,35.03,136.69,1571123652,69.8,56.0,20.0,26.4
fiche,ET,9.77,38.74,1571123652,63.07,58.0,76.0,4.9
ust-maya,RU,60.42,134.54,1571123652,27.27,83.0,100.0,5.29
los llanos de aridane,ES,28.66,-17.92,1571123653,69.8,64.0,75.0,9.17
faya,SA,18.39,42.45,1571123653,75.2,28.0,30.0,12.75
urengoy,RU,65.96,78.37,1571123653,43.61,87.0,97.0,8.65
chulman,RU,56.84,124.9,1571123653,26.83,86.0,100.0,10.07
berekum,GH,7.45,-2.58,1571123653,70.41,98.0,99.0,7.13
pak phanang,TH,8.35,100.2,1571123654,78.8,94.0,40.0,5.82
gold coast,AU,-28,153.41,1571123654,77.0,73.0,75.0,13.87
cudahy,US,33.96,-118.19,1571123694,63.0,77.0,1.0,2.06
